output/EclipseLocator1.txt

Spacecraft: DefaultSC

Start Time (UTC)            Stop Time (UTC)               Duration (s)    Occ Body        Type        Event Number  Total Duration (s)
16 Apr 2000 19:06:20.349    16 Apr 2000 19:10:19.768      239.41858954    Mars            Penumbra    1             239.41858954
17 Apr 2000 19:35:40.517    17 Apr 2000 19:53:06.099      1045.5821679    Mars            Penumbra    2             1045.5821679
18 Apr 2000 20:08:23.536    18 Apr 2000 20:14:58.947      395.41160407    Mars            Penumbra    3             1451.2814415
18 Apr 2000 20:14:58.947    18 Apr 2000 20:25:59.412      660.46442392    Mars            Umbra       3             1451.2814415
18 Apr 2000 20:25:59.412    18 Apr 2000 20:32:34.817      395.40541351    Mars            Penumbra    3             1451.2814415
19 Apr 2000 20:41:58.343    19 Apr 2000 20:46:40.510      282.16698660    Mars            Penumbra    4             1759.5822031
19 Apr 2000 20:46:40.510    19 Apr 2000 21:06:35.764      1195.2543224    Mars            Umbra       4             1759.5822031
19 Apr 2000 21:06:35.764    19 Apr 2000 21:11:17.925      282.16089411    Mars            Penumbra    4             1759.5822031
20 Apr 2000 21:16:02.811    20 Apr 2000 21:19:56.394      233.58320296    Mars            Penumbra    5             2015.6542123
20 Apr 2000 21:19:56.394    20 Apr 2000 21:45:44.888      1548.4937996    Mars            Umbra       5             2015.6542123
20 Apr 2000 21:45:44.888    20 Apr 2000 21:49:38.465      233.57720979    Mars            Penumbra    5             2015.6542123
21 Apr 2000 21:50:28.429    21 Apr 2000 21:53:52.881      204.45178722    Mars            Penumbra    6             2237.4777234
21 Apr 2000 21:53:52.881    21 Apr 2000 22:24:21.461      1828.5800523    Mars            Umbra       6             2237.4777234
21 Apr 2000 22:24:21.461    21 Apr 2000 22:27:45.907      204.44588395    Mars            Penumbra    6             2237.4777234
22 Apr 2000 22:25:10.889    22 Apr 2000 22:28:15.365      184.47596077    Mars            Penumbra    7             2434.4138459
22 Apr 2000 22:28:15.365    22 Apr 2000 23:02:40.833      2065.4677258    Mars            Umbra       7             2434.4138459
22 Apr 2000 23:02:40.833    22 Apr 2000 23:05:45.303      184.47015934    Mars            Penumbra    7             2434.4138459
23 Apr 2000 23:00:07.833    23 Apr 2000 23:02:57.533      169.70054742    Mars            Penumbra    8             2612.0789828
23 Apr 2000 23:02:57.533    23 Apr 2000 23:40:50.217      2272.6835879    Mars            Umbra       8             2612.0789828
23 Apr 2000 23:40:50.217    23 Apr 2000 23:43:39.912      169.69484752    Mars            Penumbra    8             2612.0789828
24 Apr 2000 23:35:17.813    24 Apr 2000 23:37:56.034      158.22073391    Mars            Penumbra    9             2774.1622128
24 Apr 2000 23:37:56.034    25 Apr 2000 00:18:53.760      2457.7263459    Mars            Umbra       9             2774.1622128
25 Apr 2000 00:18:53.760    25 Apr 2000 00:21:31.975      158.21513302    Mars            Penumbra    9             2774.1622128
26 Apr 2000 00:10:39.919    26 Apr 2000 00:13:08.907      148.98742834    Mars            Penumbra    10            2923.2421610
26 Apr 2000 00:13:08.907    26 Apr 2000 00:56:54.180      2625.2728037    Mars            Umbra       10            2923.2421610
26 Apr 2000 00:56:54.180    26 Apr 2000 00:59:23.162      148.98192898    Mars            Penumbra    10            2923.2421610
27 Apr 2000 00:46:13.589    27 Apr 2000 00:48:34.957      141.36822335    Mars            Penumbra    11            3061.2052111
27 Apr 2000 00:48:34.957    27 Apr 2000 01:34:53.431      2778.4741579    Mars            Umbra       11            3061.2052111
27 Apr 2000 01:34:53.431    27 Apr 2000 01:37:14.794      141.36282991    Mars            Penumbra    11            3061.2052111
28 Apr 2000 01:21:58.429    28 Apr 2000 01:24:13.384      134.95501917    Mars            Penumbra    12            3189.4862302
28 Apr 2000 01:24:13.384    28 Apr 2000 02:12:52.966      2919.5814816    Mars            Umbra       12            3189.4862302
28 Apr 2000 02:12:52.966    28 Apr 2000 02:15:07.916      134.94972945    Mars            Penumbra    12            3189.4862302
29 Apr 2000 01:57:54.226    29 Apr 2000 02:00:03.698      129.47213048    Mars            Penumbra    13            3309.1992524
29 Apr 2000 02:00:03.698    29 Apr 2000 02:50:53.958      3050.2601805    Mars            Umbra       13            3309.1992524
29 Apr 2000 02:50:53.958    29 Apr 2000 02:53:03.425      129.46694135    Mars            Penumbra    13            3309.1992524
30 Apr 2000 02:34:00.845    30 Apr 2000 02:36:05.570      124.72498891    Mars            Penumbra    14            3421.2348154
30 Apr 2000 02:36:05.570    30 Apr 2000 03:28:57.360      3171.7899277    Mars            Umbra       14            3421.2348154
30 Apr 2000 03:28:57.360    30 Apr 2000 03:31:02.080      124.71989879    Mars            Penumbra    14            3421.2348154
01 May 2000 03:10:18.213    01 May 2000 03:12:18.785      120.57203605    Mars            Penumbra    15            3526.3166632
01 May 2000 03:12:18.785    01 May 2000 04:07:03.962      3285.1775797    Mars            Umbra       15            3526.3166632
01 May 2000 04:07:03.962    01 May 2000 04:09:04.529      120.56704746    Mars            Penumbra    15            3526.3166632
02 May 2000 03:46:46.305    02 May 2000 03:48:43.212      116.90751786    Mars            Penumbra    16            3625.0423108
02 May 2000 03:48:43.212    02 May 2000 04:45:14.445      3391.2321596    Mars            Umbra       16            3625.0423108
02 May 2000 04:45:14.445    02 May 2000 04:47:11.347      116.90263330    Mars            Penumbra    16            3625.0423108
03 May 2000 04:23:25.134    03 May 2000 04:25:18.784      113.65042428    Mars            Penumbra    17            3717.9119759
03 May 2000 04:25:18.784    03 May 2000 05:23:29.400      3490.6159009    Mars            Umbra       17            3717.9119759
03 May 2000 05:23:29.400    03 May 2000 05:25:23.046      113.64565068    Mars            Penumbra    17            3717.9119759
04 May 2000 05:00:14.712    04 May 2000 05:02:05.450      110.73801331    Mars            Penumbra    18            3805.3490340
04 May 2000 05:02:05.450    04 May 2000 06:01:49.328      3583.8776817    Mars            Umbra       18            3805.3490340
04 May 2000 06:01:49.328    04 May 2000 06:03:40.061      110.73333904    Mars            Penumbra    18            3805.3490340
05 May 2000 05:37:15.085    05 May 2000 05:39:03.206      108.12029309    Mars            Penumbra    19            3887.7148422
05 May 2000 05:39:03.206    05 May 2000 06:40:14.684      3671.4788306    Mars            Umbra       19            3887.7148422
05 May 2000 06:40:14.684    05 May 2000 06:42:02.800      108.11571846    Mars            Penumbra    19            3887.7148422
06 May 2000 06:14:26.292    06 May 2000 06:16:12.049      105.75720649    Mars            Penumbra    20            3965.3214240
06 May 2000 06:16:12.049    06 May 2000 07:18:45.861      3753.8114835    Mars            Umbra       20            3965.3214240
06 May 2000 07:18:45.861    06 May 2000 07:20:31.613      105.75273401    Mars            Penumbra    20            3965.3214240
07 May 2000 06:51:48.376    07 May 2000 06:53:31.992      103.61619360    Mars            Penumbra    21            4038.4398485
07 May 2000 06:53:31.992    07 May 2000 07:57:23.204      3831.2118316    Mars            Umbra       21            4038.4398485
07 May 2000 07:57:23.204    07 May 2000 07:59:06.816      103.61182328    Mars            Penumbra    21            4038.4398485
08 May 2000 07:29:21.413    08 May 2000 07:31:03.083      101.67041514    Mars            Penumbra    22            4107.3062312
08 May 2000 07:31:03.083    08 May 2000 08:36:07.053      3903.9696813    Mars            Umbra       22            4107.3062312
08 May 2000 08:36:07.053    08 May 2000 08:37:48.719      101.66613471    Mars            Penumbra    22            4107.3062312
09 May 2000 08:07:05.385    09 May 2000 08:08:45.283      99.897722772    Mars            Penumbra    23            4172.1301940
09 May 2000 08:08:45.283    09 May 2000 09:14:57.622      3972.3389305    Mars            Umbra       23            4172.1301940
09 May 2000 09:14:57.622    09 May 2000 09:16:37.516      99.893540726    Mars            Penumbra    23            4172.1301940
10 May 2000 08:45:00.360    10 May 2000 08:46:38.639      98.279439833    Mars            Penumbra    24            4233.0950637
10 May 2000 08:46:38.639    10 May 2000 09:53:55.180      4036.5402658    Mars            Umbra       24            4233.0950637
10 May 2000 09:53:55.180    10 May 2000 09:55:33.455      98.275358055    Mars            Penumbra    24            4233.0950637
11 May 2000 09:23:06.360    11 May 2000 09:24:43.160      96.799844597    Mars            Penumbra    25            4290.3645048
11 May 2000 09:24:43.160    11 May 2000 10:32:59.929      4096.7687965    Mars            Umbra       25            4290.3645048
11 May 2000 10:32:59.929    11 May 2000 10:34:36.724      96.795863716    Mars            Penumbra    25            4290.3645048
12 May 2000 10:01:23.400    12 May 2000 10:02:58.846      95.445588464    Mars            Penumbra    26            4344.0842795
12 May 2000 10:02:58.846    12 May 2000 11:12:12.043      4153.1969829    Mars            Umbra       26            4344.0842795
12 May 2000 11:12:12.043    12 May 2000 11:13:47.485      95.441708167    Mars            Penumbra    26            4344.0842795
13 May 2000 10:39:51.511    13 May 2000 10:41:25.716      94.205359637    Mars            Penumbra    27            4394.3858734
13 May 2000 10:41:25.716    13 May 2000 11:51:31.695      4205.9789376    Mars            Umbra       27            4394.3858734
13 May 2000 11:51:31.695    13 May 2000 11:53:05.897      94.201576151    Mars            Penumbra    27            4394.3858734
14 May 2000 11:18:30.653    14 May 2000 11:20:03.722      93.069141638    Mars            Penumbra    28            4441.3833271
14 May 2000 11:20:03.722    14 May 2000 12:30:58.971      4255.2487299    Mars            Umbra       28            4441.3833271
14 May 2000 12:30:58.971    14 May 2000 12:32:32.036      93.065455591    Mars            Penumbra    28            4441.3833271
15 May 2000 11:57:20.832    15 May 2000 11:58:52.861      92.028583889    Mars            Penumbra    29            4485.1829506
15 May 2000 11:58:52.861    15 May 2000 13:10:33.990      4301.1293695    Mars            Umbra       29            4485.1829506
15 May 2000 13:10:33.990    15 May 2000 13:12:06.015      92.024997168    Mars            Penumbra    29            4485.1829506
16 May 2000 12:36:22.023    16 May 2000 12:37:53.100      91.076342901    Mars            Penumbra    30            4525.8793279
16 May 2000 12:37:53.100    16 May 2000 13:50:16.830      4343.7301289    Mars            Umbra       30            4525.8793279
16 May 2000 13:50:16.830    16 May 2000 13:51:47.903      91.072856134    Mars            Penumbra    30            4525.8793279
17 May 2000 13:15:34.183    17 May 2000 13:17:04.389      90.206048638    Mars            Penumbra    31            4563.5576210
17 May 2000 13:17:04.389    17 May 2000 14:30:07.538      4383.1489125    Mars            Umbra       31            4563.5576210
17 May 2000 14:30:07.538    17 May 2000 14:31:37.741      90.202659939    Mars            Penumbra    31            4563.5576210
18 May 2000 13:54:57.262    18 May 2000 13:56:26.674      89.412166527    Mars            Penumbra    32            4598.2946230
18 May 2000 13:56:26.674    18 May 2000 15:10:06.148      4419.4735809    Mars            Umbra       32            4598.2946230
18 May 2000 15:10:06.148    18 May 2000 15:11:35.557      89.408875583    Mars            Penumbra    32            4598.2946230
19 May 2000 14:34:31.199    19 May 2000 14:35:59.889      88.689765183    Mars            Penumbra    33            4630.1585268
19 May 2000 14:35:59.889    19 May 2000 15:50:12.671      4452.7821809    Mars            Umbra       33            4630.1585268
19 May 2000 15:50:12.671    19 May 2000 15:51:41.358      88.686580793    Mars            Penumbra    33            4630.1585268
20 May 2000 15:14:15.906    20 May 2000 15:15:43.941      88.034730137    Mars            Penumbra    34            4659.2139519
20 May 2000 15:15:43.941    20 May 2000 16:30:27.088      4483.1475783    Mars            Umbra       34            4659.2139519
20 May 2000 16:30:27.088    20 May 2000 16:31:55.120      88.031643501    Mars            Penumbra    34            4659.2139519
21 May 2000 15:54:11.297    21 May 2000 15:55:38.740      87.443305249    Mars            Penumbra    35            4685.5164037
21 May 2000 15:55:38.740    21 May 2000 17:10:49.373      4510.6327811    Mars            Umbra       35            4685.5164037
21 May 2000 17:10:49.373    21 May 2000 17:12:16.813      87.440317310    Mars            Penumbra    35            4685.5164037
22 May 2000 16:34:17.258    22 May 2000 16:35:44.170      86.912260239    Mars            Penumbra    36            4709.1164680
22 May 2000 16:35:44.170    22 May 2000 17:51:19.465      4535.2948406    Mars            Umbra       36            4709.1164680
22 May 2000 17:51:19.465    22 May 2000 17:52:46.375      86.909367226    Mars            Penumbra    36            4709.1164680
23 May 2000 17:14:33.665    23 May 2000 17:16:00.104      86.438785074    Mars            Penumbra    37            4730.0595380
23 May 2000 17:16:00.104    23 May 2000 18:31:57.288      4557.1847672    Mars            Umbra       37            4730.0595380
23 May 2000 18:31:57.288    23 May 2000 18:33:23.724      86.435985728    Mars            Penumbra    37            4730.0595380
24 May 2000 17:55:00.408    24 May 2000 17:56:26.429      86.020399129    Mars            Penumbra    38            4748.3852182
24 May 2000 17:56:26.429    24 May 2000 19:12:42.776      4576.3471328    Mars            Umbra       38            4748.3852182
24 May 2000 19:12:42.776    24 May 2000 19:14:08.794      86.017686222    Mars            Penumbra    38            4748.3852182
25 May 2000 18:35:37.275    25 May 2000 18:37:02.931      85.655074718    Mars            Penumbra    39            4764.1323604
25 May 2000 18:37:02.931    25 May 2000 19:53:35.755      4592.8248280    Mars            Umbra       39            4764.1323604
25 May 2000 19:53:35.755    25 May 2000 19:55:01.408      85.652457678    Mars            Penumbra    39            4764.1323604
26 May 2000 19:16:24.127    26 May 2000 19:17:49.468      85.340972745    Mars            Penumbra    40            4777.3317762
26 May 2000 19:17:49.468    26 May 2000 20:34:36.120      4606.6523528    Mars            Umbra       40            4777.3317762
26 May 2000 20:34:36.120    26 May 2000 20:36:01.458      85.338450631    Mars            Penumbra    40            4777.3317762
27 May 2000 19:57:20.771    27 May 2000 19:58:45.847      85.076562152    Mars            Penumbra    41            4788.0112024
27 May 2000 19:58:45.847    27 May 2000 21:15:43.708      4617.8605081    Mars            Umbra       41            4788.0112024
27 May 2000 21:15:43.708    27 May 2000 21:17:08.782      85.074132134    Mars            Penumbra    41            4788.0112024
28 May 2000 20:38:26.998    28 May 2000 20:39:51.859      84.860577167    Mars            Penumbra    42            4796.1949578
28 May 2000 20:39:51.859    28 May 2000 21:56:58.335      4626.4761414    Mars            Umbra       42            4796.1949578
28 May 2000 21:56:58.335    28 May 2000 21:58:23.193      84.858239244    Mars            Penumbra    42            4796.1949578
29 May 2000 21:19:42.605    29 May 2000 21:21:07.297      84.692075767    Mars            Penumbra    43            4801.9062607
29 May 2000 21:21:07.297    29 May 2000 22:38:19.821      4632.5243527    Mars            Umbra       43            4801.9062607
29 May 2000 22:38:19.821    29 May 2000 22:39:44.511      84.689832141    Mars            Penumbra    43            4801.9062607
30 May 2000 22:01:07.321    30 May 2000 22:02:31.891      84.570098016    Mars            Penumbra    44            4805.1582427
30 May 2000 22:02:31.891    30 May 2000 23:19:47.911      4636.0201963    Mars            Umbra       44            4805.1582427
30 May 2000 23:19:47.911    30 May 2000 23:21:12.479      84.567948373    Mars            Penumbra    44            4805.1582427
31 May 2000 22:42:40.906    31 May 2000 22:44:05.400      84.494151059    Mars            Penumbra    45            4805.9670290
31 May 2000 22:44:05.400    01 Jun 2000 00:01:22.381      4636.9807857    Mars            Umbra       45            4805.9670290
01 Jun 2000 00:01:22.381    01 Jun 2000 00:02:46.873      84.492092254    Mars            Penumbra    45            4805.9670290
01 Jun 2000 23:24:23.086    01 Jun 2000 23:25:47.549      84.463845449    Mars            Penumbra    46            4804.3429648
01 Jun 2000 23:25:47.549    02 Jun 2000 00:43:02.967      4635.4172437    Mars            Umbra       46            4804.3429648
02 Jun 2000 00:43:02.967    02 Jun 2000 00:44:27.429      84.461875597    Mars            Penumbra    46            4804.3429648
03 Jun 2000 00:06:13.562    03 Jun 2000 00:07:38.041      84.479013656    Mars            Penumbra    47            4800.2938345
03 Jun 2000 00:07:38.041    03 Jun 2000 01:24:49.379      4631.3376862    Mars            Umbra       47            4800.2938345
03 Jun 2000 01:24:49.379    03 Jun 2000 01:26:13.856      84.477134643    Mars            Penumbra    47            4800.2938345
04 Jun 2000 00:48:12.028    04 Jun 2000 00:49:36.568      84.539705969    Mars            Penumbra    48            4793.8245707
04 Jun 2000 00:49:36.568    04 Jun 2000 02:06:41.315      4624.7469460    Mars            Umbra       48            4793.8245707
04 Jun 2000 02:06:41.315    04 Jun 2000 02:08:05.853      84.537918738    Mars            Penumbra    48            4793.8245707
05 Jun 2000 01:30:18.166    05 Jun 2000 01:31:42.812      84.646073577    Mars            Penumbra    49            4784.9347204
05 Jun 2000 01:31:42.812    05 Jun 2000 02:48:38.456      4615.6442630    Mars            Umbra       49            4784.9347204
05 Jun 2000 02:48:38.456    05 Jun 2000 02:50:03.100      84.644383786    Mars            Penumbra    49            4784.9347204
06 Jun 2000 02:12:31.613    06 Jun 2000 02:13:56.411      84.798700805    Mars            Penumbra    50            4773.6256245
06 Jun 2000 02:13:56.411    06 Jun 2000 03:30:40.441      4604.0298263    Mars            Umbra       50            4773.6256245
06 Jun 2000 03:30:40.441    06 Jun 2000 03:32:05.238      84.797097452    Mars            Penumbra    50            4773.6256245
07 Jun 2000 02:54:52.021    07 Jun 2000 02:56:17.019      84.998169146    Mars            Penumbra    51            4759.8906319
07 Jun 2000 02:56:17.019    07 Jun 2000 04:12:46.915      4589.8958108    Mars            Umbra       51            4759.8906319
07 Jun 2000 04:12:46.915    07 Jun 2000 04:14:11.911      84.996651916    Mars            Penumbra    51            4759.8906319
08 Jun 2000 03:37:19.008    08 Jun 2000 03:38:44.254      85.245351784    Mars            Penumbra    52            4743.7218649
08 Jun 2000 03:38:44.254    08 Jun 2000 04:54:57.486      4573.2325899    Mars            Umbra       52            4743.7218649
08 Jun 2000 04:54:57.486    08 Jun 2000 04:56:22.730      85.243923194    Mars            Penumbra    52            4743.7218649
09 Jun 2000 04:19:52.181    09 Jun 2000 04:21:17.722      85.541362991    Mars            Penumbra    53            4725.1080961
09 Jun 2000 04:21:17.722    09 Jun 2000 05:37:11.749      4554.0267116    Mars            Umbra       53            4725.1080961
09 Jun 2000 05:37:11.749    09 Jun 2000 05:38:37.289      85.540021467    Mars            Penumbra    53            4725.1080961
10 Jun 2000 05:02:31.164    10 Jun 2000 05:03:57.052      85.887565662    Mars            Penumbra    54            4704.0345629
10 Jun 2000 05:03:57.052    10 Jun 2000 06:19:29.313      4532.2607005    Mars            Umbra       54            4704.0345629
10 Jun 2000 06:19:29.313    10 Jun 2000 06:20:55.199      85.886296746    Mars            Penumbra    54            4704.0345629
11 Jun 2000 05:45:15.476    11 Jun 2000 05:46:41.761      86.285550578    Mars            Penumbra    55            4680.4822990
11 Jun 2000 05:46:41.761    11 Jun 2000 07:01:49.674      4507.9123831    Mars            Umbra       55            4680.4822990
11 Jun 2000 07:01:49.674    11 Jun 2000 07:03:15.958      86.284365272    Mars            Penumbra    55            4680.4822990
12 Jun 2000 06:28:04.715    12 Jun 2000 06:29:31.452      86.737238558    Mars            Penumbra    56            4654.4296293
12 Jun 2000 06:29:31.452    12 Jun 2000 07:44:12.408      4480.9562513    Mars            Umbra       56            4654.4296293
12 Jun 2000 07:44:12.408    12 Jun 2000 07:45:39.144      86.736139376    Mars            Penumbra    56            4654.4296293
13 Jun 2000 07:10:58.432    13 Jun 2000 07:12:25.677      87.244849338    Mars            Penumbra    57            4625.8505919
13 Jun 2000 07:12:25.677    13 Jun 2000 08:26:37.039      4451.3619084    Mars            Umbra       57            4625.8505919
13 Jun 2000 08:26:37.039    13 Jun 2000 08:28:04.283      87.243834080    Mars            Penumbra    57            4625.8505919
14 Jun 2000 07:53:56.168    14 Jun 2000 07:55:23.979      87.810953753    Mars            Penumbra    58            4594.7149694
14 Jun 2000 07:55:23.979    14 Jun 2000 09:09:03.073      4419.0939942    Mars            Umbra       58            4594.7149694
14 Jun 2000 09:09:03.073    14 Jun 2000 09:10:30.883      87.810021476    Mars            Penumbra    58            4594.7149694
15 Jun 2000 08:36:57.464    15 Jun 2000 08:38:25.903      88.438568974    Mars            Penumbra    59            4560.9891107
15 Jun 2000 08:38:25.903    15 Jun 2000 09:51:30.015      4384.1128157    Mars            Umbra       59            4560.9891107
15 Jun 2000 09:51:30.015    15 Jun 2000 09:52:58.453      88.437725964    Mars            Penumbra    59            4560.9891107
16 Jun 2000 09:20:01.836    16 Jun 2000 09:21:30.967      89.130967716    Mars            Penumbra    60            4524.6308777
16 Jun 2000 09:21:30.967    16 Jun 2000 10:33:57.336      4346.3697011    Mars            Umbra       60            4524.6308777
16 Jun 2000 10:33:57.336    16 Jun 2000 10:35:26.467      89.130208944    Mars            Penumbra    60            4524.6308777
17 Jun 2000 10:03:08.809    17 Jun 2000 10:04:38.701      89.892128028    Mars            Penumbra    61            4485.5970769
17 Jun 2000 10:04:38.701    17 Jun 2000 11:16:24.515      4305.8134972    Mars            Umbra       61            4485.5970769
17 Jun 2000 11:16:24.515    17 Jun 2000 11:17:54.406      89.891451609    Mars            Penumbra    61            4485.5970769
18 Jun 2000 10:46:17.902    18 Jun 2000 10:47:48.629      90.726484044    Mars            Penumbra    62            4443.8369634
18 Jun 2000 10:47:48.629    18 Jun 2000 11:58:51.013      4262.3845913    Mars            Umbra       62            4443.8369634
18 Jun 2000 11:58:51.013    18 Jun 2000 12:00:21.739      90.725888091    Mars            Penumbra    62            4443.8369634
19 Jun 2000 11:29:28.625    19 Jun 2000 11:31:00.264      91.639136570    Mars            Penumbra    63            4399.2933566
19 Jun 2000 11:31:00.264    19 Jun 2000 12:41:16.280      4216.0156012    Mars            Umbra       63            4399.2933566
19 Jun 2000 12:41:16.280    19 Jun 2000 12:42:47.918      91.638618882    Mars            Penumbra    63            4399.2933566
20 Jun 2000 12:12:40.491    20 Jun 2000 12:14:13.127      92.635946441    Mars            Penumbra    64            4351.9022202
20 Jun 2000 12:14:13.127    20 Jun 2000 13:23:39.757      4166.6307664    Mars            Umbra       64            4351.9022202
20 Jun 2000 13:23:39.757    20 Jun 2000 13:25:12.393      92.635507334    Mars            Penumbra    64            4351.9022202
21 Jun 2000 12:55:53.038    21 Jun 2000 12:57:26.761      93.723528238    Mars            Penumbra    65            4301.5908527
21 Jun 2000 12:57:26.761    21 Jun 2000 14:06:00.905      4114.1441577    Mars            Umbra       65            4301.5908527
21 Jun 2000 14:06:00.905    21 Jun 2000 14:07:34.629      93.723166769    Mars            Penumbra    65            4301.5908527
22 Jun 2000 13:39:05.744    22 Jun 2000 13:40:40.654      94.909835863    Mars            Penumbra    66            4248.2810832
22 Jun 2000 13:40:40.654    22 Jun 2000 14:48:19.116      4058.4616931    Mars            Umbra       66            4248.2810832
22 Jun 2000 14:48:19.116    22 Jun 2000 14:49:54.025      94.909554231    Mars            Penumbra    66            4248.2810832
23 Jun 2000 14:22:18.160    23 Jun 2000 14:23:54.364      96.203725634    Mars            Penumbra    67            4191.8811081
23 Jun 2000 14:23:54.364    23 Jun 2000 15:30:33.838      3999.4738618    Mars            Umbra       67            4191.8811081
23 Jun 2000 15:30:33.838    23 Jun 2000 15:32:10.042      96.203520696    Mars            Penumbra    67            4191.8811081
24 Jun 2000 15:05:29.819    24 Jun 2000 15:07:07.434      97.615583986    Mars            Penumbra    68            4132.2889619
24 Jun 2000 15:07:07.434    24 Jun 2000 16:12:44.492      3937.0579231    Mars            Umbra       68            4132.2889619
24 Jun 2000 16:12:44.492    24 Jun 2000 16:14:22.108      97.615454800    Mars            Penumbra    68            4132.2889619
25 Jun 2000 15:48:40.263    25 Jun 2000 15:50:19.420      99.157547182    Mars            Penumbra    69            4069.3903111
25 Jun 2000 15:50:19.420    25 Jun 2000 16:54:50.495      3871.0752680    Mars            Umbra       69            4069.3903111
25 Jun 2000 16:54:50.495    25 Jun 2000 16:56:29.653      99.157495948    Mars            Penumbra    69            4069.3903111
26 Jun 2000 16:31:49.079    26 Jun 2000 16:33:29.923      100.84393979    Mars            Penumbra    70            4003.0574089
26 Jun 2000 16:33:29.923    26 Jun 2000 17:36:51.293      3801.3695086    Mars            Umbra       70            4003.0574089
26 Jun 2000 17:36:51.293    26 Jun 2000 17:38:32.137      100.84396054    Mars            Penumbra    70            4003.0574089
27 Jun 2000 17:14:55.801    27 Jun 2000 17:16:38.492      102.69135829    Mars            Penumbra    71            3933.1415266
27 Jun 2000 17:16:38.492    27 Jun 2000 18:18:46.251      3727.7587133    Mars            Umbra       71            3933.1415266
27 Jun 2000 18:18:46.251    27 Jun 2000 18:20:28.943      102.69145510    Mars            Penumbra    71            3933.1415266
28 Jun 2000 17:58:00.052    28 Jun 2000 17:59:44.771      104.71985796    Mars            Penumbra    72            3859.4775500
28 Jun 2000 17:59:44.771    28 Jun 2000 19:00:34.809      3650.0376643    Mars            Umbra       72            3859.4775500
28 Jun 2000 19:00:34.809    28 Jun 2000 19:02:19.529      104.72002770    Mars            Penumbra    72            3859.4775500
29 Jun 2000 18:41:01.452    29 Jun 2000 18:42:48.405      106.95332786    Mars            Penumbra    73            3781.8760306
29 Jun 2000 18:42:48.405    29 Jun 2000 19:42:16.374      3567.9691304    Mars            Umbra       73            3781.8760306
29 Jun 2000 19:42:16.374    29 Jun 2000 19:44:03.328      106.95357240    Mars            Penumbra    73            3781.8760306
30 Jun 2000 19:23:59.645    30 Jun 2000 19:25:49.066      109.42067862    Mars            Penumbra    74            3700.1201571
30 Jun 2000 19:25:49.066    30 Jun 2000 20:23:50.344      3481.2784786    Mars            Umbra       74            3700.1201571
30 Jun 2000 20:23:50.344    30 Jun 2000 20:25:39.765      109.42099986    Mars            Penumbra    74            3700.1201571
01 Jul 2000 20:06:54.316    01 Jul 2000 20:08:46.473      112.15725162    Mars            Penumbra    75            3613.9596420
01 Jul 2000 20:08:46.473    01 Jul 2000 21:05:16.118      3389.6447399    Mars            Umbra       75            3613.9596420
01 Jul 2000 21:05:16.118    01 Jul 2000 21:07:08.275      112.15765049    Mars            Penumbra    75            3613.9596420
02 Jul 2000 20:49:45.181    02 Jul 2000 20:51:40.388      115.20650868    Mars            Penumbra    76            3523.1048724
02 Jul 2000 20:51:40.388    02 Jul 2000 21:46:33.079      3292.6913738    Mars            Umbra       76            3523.1048724
02 Jul 2000 21:46:33.079    02 Jul 2000 21:48:28.286      115.20698990    Mars            Penumbra    76            3523.1048724
03 Jul 2000 21:32:31.992    03 Jul 2000 21:34:30.615      118.62326682    Mars            Penumbra    77            3427.2156262
03 Jul 2000 21:34:30.615    03 Jul 2000 22:27:40.584      3189.9685397    Mars            Umbra       77            3427.2156262
03 Jul 2000 22:27:40.584    03 Jul 2000 22:29:39.208      118.62381971    Mars            Penumbra    77            3427.2156262
04 Jul 2000 22:15:14.560    04 Jul 2000 22:17:17.037      122.47682732    Mars            Penumbra    78            3325.8925620
04 Jul 2000 22:17:17.037    04 Jul 2000 23:08:37.976      3080.9382806    Mars            Umbra       78            3325.8925620
04 Jul 2000 23:08:37.976    04 Jul 2000 23:10:40.453      122.47745408    Mars            Penumbra    78            3325.8925620
05 Jul 2000 22:57:52.744    05 Jul 2000 22:59:59.601      126.85692860    Mars            Penumbra    79            3218.6598304
05 Jul 2000 22:59:59.601    05 Jul 2000 23:49:24.547      2964.9452726    Mars            Umbra       79            3218.6598304
05 Jul 2000 23:49:24.547    05 Jul 2000 23:51:31.404      126.85762922    Mars            Penumbra    79            3218.6598304
06 Jul 2000 23:40:26.474    06 Jul 2000 23:42:38.356      131.88203116    Mars            Penumbra    80            3104.9436712
06 Jul 2000 23:42:38.356    07 Jul 2000 00:29:59.535      2841.1788353    Mars            Umbra       80            3104.9436712
07 Jul 2000 00:29:59.535    07 Jul 2000 00:32:11.417      131.88280470    Mars            Penumbra    80            3104.9436712
08 Jul 2000 00:22:55.795    08 Jul 2000 00:25:13.507      137.71210068    Mars            Penumbra    81            2984.0439972
08 Jul 2000 00:25:13.507    08 Jul 2000 01:10:22.126      2708.6189632    Mars            Umbra       81            2984.0439972
08 Jul 2000 01:10:22.126    08 Jul 2000 01:12:39.839      137.71293332    Mars            Penumbra    81            2984.0439972
09 Jul 2000 01:05:20.771    09 Jul 2000 01:07:45.341      144.57005735    Mars            Penumbra    82            2855.0894695
09 Jul 2000 01:07:45.341    09 Jul 2000 01:50:31.290      2565.9484505    Mars            Umbra       82            2855.0894695
09 Jul 2000 01:50:31.290    09 Jul 2000 01:52:55.861      144.57096165    Mars            Penumbra    82            2855.0894695
10 Jul 2000 01:47:41.692    10 Jul 2000 01:50:14.469      152.77657968    Mars            Penumbra    83            2716.9791488
10 Jul 2000 01:50:14.469    10 Jul 2000 02:30:25.894      2411.4250122    Mars            Umbra       83            2716.9791488
10 Jul 2000 02:30:25.894    10 Jul 2000 02:32:58.671      152.77755690    Mars            Penumbra    83            2716.9791488
11 Jul 2000 02:29:58.999    11 Jul 2000 02:32:41.813      162.81425940    Mars            Penumbra    84            2568.2843417
11 Jul 2000 02:32:41.813    11 Jul 2000 03:10:04.468      2242.6547724    Mars            Umbra       84            2568.2843417
11 Jul 2000 03:10:04.468    11 Jul 2000 03:12:47.283      162.81530986    Mars            Penumbra    84            2568.2843417
12 Jul 2000 03:12:13.394    12 Jul 2000 03:15:08.845      175.45102732    Mars            Penumbra    85            2407.0949700
12 Jul 2000 03:15:08.845    12 Jul 2000 03:49:25.037      2056.1917973    Mars            Umbra       85            2407.0949700
12 Jul 2000 03:49:25.037    12 Jul 2000 03:52:20.489      175.45214536    Mars            Penumbra    85            2407.0949700
13 Jul 2000 03:54:25.996    13 Jul 2000 03:57:38.000      192.00403582    Mars            Penumbra    86            2230.7572934
13 Jul 2000 03:57:38.000    13 Jul 2000 04:28:24.748      1846.7480314    Mars            Umbra       86            2230.7572934
13 Jul 2000 04:28:24.748    13 Jul 2000 04:31:36.754      192.00522616    Mars            Penumbra    86            2230.7572934
14 Jul 2000 04:36:38.507    14 Jul 2000 04:40:13.489      214.98207108    Mars            Penumbra    87            2035.4025462
14 Jul 2000 04:40:13.489    14 Jul 2000 05:06:58.927      1605.4371423    Mars            Umbra       87            2035.4025462
14 Jul 2000 05:06:58.927    14 Jul 2000 05:10:33.910      214.98333276    Mars            Penumbra    87            2035.4025462
15 Jul 2000 05:18:53.796    15 Jul 2000 05:23:03.819      250.02301616    Mars            Penumbra    88            1814.9654991
15 Jul 2000 05:23:03.819    15 Jul 2000 05:44:58.737      1314.9181340    Mars            Umbra       88            1814.9654991
15 Jul 2000 05:44:58.737    15 Jul 2000 05:49:08.761      250.02434888    Mars            Penumbra    88            1814.9654991
16 Jul 2000 06:01:16.966    16 Jul 2000 06:06:31.272      314.30631200    Mars            Penumbra    89            1558.9218256
16 Jul 2000 06:06:31.272    16 Jul 2000 06:22:01.580      930.30780003    Mars            Umbra       89            1558.9218256
16 Jul 2000 06:22:01.580    16 Jul 2000 06:27:15.888      314.30771356    Mars            Penumbra    89            1558.9218256
17 Jul 2000 06:43:58.714    17 Jul 2000 07:04:44.316      1245.6012710    Mars            Penumbra    90            1245.6012710
18 Jul 2000 07:27:30.785    18 Jul 2000 07:41:02.078      811.29366421    Mars            Penumbra    91            811.29366421

Number of individual events : 265
Number of total events      : 91
Maximum duration (s)        :   4805.9670290
Maximum duration at the 45th eclipse.


